{
  "restaurants": [
    {
      "id": "1",
      "name": "Misu",
      "category": "Asiatique",
      "description": "Cuisine asiatique fusion raffinée",
      "emoji": "🥟",
      "appreciation": 4,
      "recurrence": 2,
      "budget": 2,
      "coords": { "lat": 48.8441, "lng": 2.3157 },
      "address": "8 bis Rue Falguière, 75015 Paris",
      "website": null,
      "menu": null
    },
    {
      "id": "2",
      "name": "Okirama",
      "category": "Japonais",
      "description": "Spécialités japonaises authentiques",
      "emoji": "🍜",
      "appreciation": 4,
      "recurrence": 2,
      "budget": 2,
      "coords": { "lat": 48.8424, "lng": 2.3138 },
      "address": "48 Bd de Vaugirard, 75015 Paris",
      "website": null,
      "menu": null
    },
    {
      "id": "3",
      "name": "Le Street Four Libanais",
      "category": "Libanais",
      "description": "Street food libanaise généreuse",
      "emoji": "🧆",
      "appreciation": 4,
      "recurrence": 2,
      "budget": 1,
      "coords": { "lat": 48.8446, "lng": 2.3234 },
      "address": "49 Bd du Montparnasse, 75006 Paris",
      "website": null,
      "menu": null
    },
    {
      "id": "4",
      "name": "Le 41 Pasteur",
      "category": "Français",
      "description": "Bistrot français de quartier",
      "emoji": "🍷",
      "appreciation": 3,
      "recurrence": 2,
      "budget": 2,
      "coords": { "lat": 48.8412, "lng": 2.3105 },
      "address": "41 Bd Pasteur, 75015 Paris",
      "website": null,
      "menu": null
    },
    {
      "id": "5",
      "name": "Restaurant Pilgrim",
      "category": "Français",
      "description": "Cuisine française contemporaine",
      "emoji": "🍽️",
      "appreciation": 4,
      "recurrence": 1,
      "budget": 3,
      "coords": { "lat": 48.8412, "lng": 2.3081 },
      "address": "8 Rue Nicolas Charlet, 75015 Paris",
      "website": null,
      "menu": null
    },
    {
      "id": "6",
      "name": "Mille Grazie",
      "category": "Italien",
      "description": "Trattoria italienne chaleureuse",
      "emoji": "🍝",
      "appreciation": 4,
      "recurrence": 3,
      "budget": 2,
      "coords": { "lat": 48.8417, "lng": 2.3110 },
      "address": "36 Bd Pasteur, 75015 Paris",
      "website": null,
      "menu": null
    },
    {
      "id": "9",
      "name": "Restaurant Bong",
      "category": "Coréen",
      "description": "Cuisine coréenne traditionnelle",
      "emoji": "🇰🇷",
      "appreciation": 4,
      "recurrence": 2,
      "budget": 2,
      "coords": { "lat": 48.8413, "lng": 2.2998 },
      "address": "42 Rue Blomet, 75015 Paris",
      "website": null,
      "menu": null
    },
    {
      "id": "10",
      "name": "La Maison du Bonheur",
      "category": "Asiatique",
      "description": "Restaurant asiatique familial",
      "emoji": "🏮",
      "appreciation": 3,
      "recurrence": 3,
      "budget": 1,
      "coords": { "lat": 48.8417, "lng": 2.3037 },
      "address": "33 Rue des Volontaires, 75015 Paris",
      "website": null,
      "menu": null
    },
    {
      "id": "11",
      "name": "JING Traiteur Asiatique",
      "category": "Asiatique",
      "description": "Traiteur asiatique varié et rapide",
      "emoji": "🥡",
      "appreciation": 3,
      "recurrence": 3,
      "budget": 1,
      "coords": { "lat": 48.8408, "lng": 2.2990 },
      "address": "231 Rue de Vaugirard, 75015 Paris",
      "website": null,
      "menu": null
    },
    {
      "id": "12",
      "name": "Anima",
      "category": "Italien",
      "description": "Cuisine italienne d'auteur",
      "emoji": "🇮🇹",
      "appreciation": 5,
      "recurrence": 1,
      "budget": 3,
      "coords": { "lat": 48.8478, "lng": 2.3239 },
      "address": "78 Rue du Cherche-Midi, 75006 Paris",
      "website": null,
      "menu": null
    },
    {
      "id": "13",
      "name": "La Cavapapa",
      "category": "Bistrot",
      "description": "Bistrot convivial avec tapas et vins",
      "emoji": "🍕",
      "appreciation": 3,
      "recurrence": 3,
      "budget": 2,
      "coords": { "lat": 48.8401, "lng": 2.3064 },
      "address": "4 Rue d'Alleray, 75015 Paris",
      "website": null,
      "menu": null
    },
    {
      "id": "14",
      "name": "MELT Cambronne",
      "category": "Burgers",
      "description": "Burgers gourmets et fromages fondants",
      "emoji": "🍔",
      "appreciation": 4,
      "recurrence": 2,
      "budget": 2,
      "coords": { "lat": 48.8447, "lng": 2.3013 },
      "address": "103 Rue Cambronne, 75015 Paris",
      "website": null,
      "menu": null
    },
    {
      "id": "15",
      "name": "BAP SAIN",
      "category": "Coréen",
      "description": "Bowls coréens sains et savoureux",
      "emoji": "🍚",
      "appreciation": 4,
      "recurrence": 2,
      "budget": 2,
      "coords": { "lat": 48.8437, "lng": 2.3020 },
      "address": "51 Rue Cambronne, 75015 Paris",
      "website": null,
      "menu": null
    },
    {
      "id": "17",
      "name": "Guillaume Grasso",
      "category": "Pizzeria",
      "description": "La vera pizza napoletana",
      "emoji": "🤌",
      "appreciation": 5,
      "recurrence": 2,
      "budget": 2,
      "coords": { "lat": 48.8344, "lng": 2.2991 },
      "address": "45 Rue Brancion, 75015 Paris",
      "website": null,
      "menu": null
    },
    {
      "id": "19",
      "name": "Washi Thaï",
      "category": "Thaï",
      "description": "Cuisine thaïlandaise parfumée",
      "emoji": "🌶️",
      "appreciation": 4,
      "recurrence": 2,
      "budget": 2,
      "coords": { "lat": 48.8426, "lng": 2.3036 },
      "address": "3 Rue Péclet, 75015 Paris",
      "website": null,
      "menu": null
    },
    {
      "id": "20",
      "name": "Gemini Convention",
      "category": "Italien",
      "description": "Restaurant italien élégant",
      "emoji": "🍷",
      "appreciation": 4,
      "recurrence": 1,
      "budget": 3,
      "coords": { "lat": 48.8378, "lng": 2.2926 },
      "address": "184 Rue de la Convention, 75015 Paris",
      "website": null,
      "menu": null
    },
    {
      "id": "21",
      "name": "Daroco Bourse",
      "category": "Italien",
      "description": "Cuisine italienne branchée et pizzas",
      "emoji": "🍕",
      "appreciation": 4,
      "recurrence": 1,
      "budget": 3,
      "coords": { "lat": 48.8668, "lng": 2.3395 },
      "address": "6 Rue Vivienne, 75002 Paris",
      "website": null,
      "menu": null
    },
    {
      "id": "22",
      "name": "Napoli Gang by Big Mama",
      "category": "Pizzeria",
      "description": "Pizzas napolitaines généreuses et festives",
      "emoji": "🍕",
      "appreciation": 4,
      "recurrence": 2,
      "budget": 2,
      "coords": { "lat": 48.8409, "lng": 2.2996 },
      "address": "225 Rue de Vaugirard, 75015 Paris",
      "website": null,
      "menu": null
    },
    {
      "id": "23",
      "name": "Chez Léo",
      "category": "Italien",
      "description": "Restaurant italien de quartier, cuisine maison",
      "emoji": "🇮🇹",
      "appreciation": 4,
      "recurrence": 2,
      "budget": 2,
      "coords": { "lat": 48.8419, "lng": 2.2989 },
      "address": "81 Rue Lecourbe, 75015 Paris",
      "website": null,
      "menu": null
    }
  ]
}
